[
  {
    "id":1,
    "title": "고염나무골 다목적구장",
    "address": "인천광역시 중구 운북동752-51",
    "lat": 37.516644,
    "lng": 126.5105587,
    "tel": "032-760-7137"
  },
  {
    "id":2,
    "title": "영마루공원",
    "address": "인천광역시 중구 운서동 2709-1 일원",
    "lat": 37.4695092,
    "lng": 126.4507804,
    "tel": "032-850-148"
  },
  {
    "id":3,
    "title": "하늘체육공원",
    "address": "인천광역시 중구 중산동 1878-3 일원",
    "lat": 37.48918,
    "lng": 126.5565635,
    "tel": "032-850-1485"
  },
  {
    "id":4,
    "title": "근린공원 6호",
    "address": "인천광역시 중구 운남동 1598-6 일원",
    "lat": 37.4817592,
    "lng": 126.5050491,
    "tel": "032-850-1485"
  },
  {
    "id":5,
    "title": "근린공원 22호",
    "address": "인천광역시 중구 중산동 1938-39 일원",
    "lat": 37.4949618,
    "lng": 126.5772118,
    "tel": "032-850-1485"
  },
  {
    "id":6,
    "title": "중구국민체육센터",
    "address": "인천광역시 중구 신흥동3가 39-24",
    "lat": 37.4402337,
    "lng": 126.6288792,
    "tel": "032-850-1453"
  },
  {
    "id":7,
    "title": "광산FC 풋살장",
    "address": "광주시 광산구 도천동 1-15",
    "lat": 35.215973,
    "lng": 126.8268818,
    "tel": "010-7531-3337"
  },
  {
    "id":8,
    "title": "광주JK풋살구장",
    "address": "전라남도 담양군 대전면 응용리 406",
    "lat": 35.251776,
    "lng": 126.8814129,
    "tel": "062-573-0829"
  },
  {
    "id":9,
    "title": "상무풋살장",
    "address": "광주시 서구 유촌동 385",
    "lat": 35.1653341,
    "lng": 126.8496528,
    "tel": "650-81-00575"
  },
  {
    "id":10,
    "title": "스타실내풋살장",
    "address": "광주시 서구 세하동 418-8",
    "lat": 35.118188,
    "lng": 126.8320341,
    "tel": "062-375-1234"
  },
  {
    "id":11,
    "title": "신화 스포디움",
    "address": "광주시 광산구 장덕동 82-3",
    "lat": 35.2037466,
    "lng": 126.8143846,
    "tel": "062-951-9876"
  },
  {
    "id":12,
    "title": "포스포 풋살장",
    "address": "광주시 북구 대촌동 959-57",
    "lat": 35.2228725,
    "lng": 126.8591415,
    "tel": "062-973-9061"
  },
  {
    "id":13,
    "title": "스카이 풋살장",
    "address": "전라북도 전주시 덕진구 호성동2가 657-1",
    "lat": 35.8686799,
    "lng": 127.1450022,
    "tel": "010-6312-2122"
  },
  {
    "id":14,
    "title": "군산 스포츠제이 풋살파크",
    "address": "전라북도 군산시 개정동 30-4",
    "lat": 35.9702234,
    "lng": 126.7613496,
    "tel": "063-461-7400"
  },
  {
    "id":15,
    "title": "김제시민운동장풋살장",
    "address": "전라북도 김제시 검산동 443-20",
    "lat": 35.8091506,
    "lng": 126.9011406,
    "tel": "063-540-3468"
  },
  {
    "id":16,
    "title": "덕진체련공원",
    "address": "전라북도 전주시 덕진구 덕진동1가 73-24",
    "lat": 35.8536993,
    "lng": 127.1411258,
    "tel": "063-239-2632"
  },
  {
    "id":17,
    "title": "배산체육공원",
    "address": "전라북도 익산시 현영동 169",
    "lat": 35.9614689,
    "lng": 126.9405168,
    "tel": "063-859-3848"
  },
  {
    "id":18,
    "title": "소룡동시민체육공원 풋살장",
    "address": "전라북도 군산시 소룡동 237-1",
    "lat": 35.9831235,
    "lng": 126.675979,
    "tel": "063-454-5572"
  },
  {
    "id":19,
    "title": "수도산체육공원 풋살장",
    "address": "전라북도 익산시 금강동 535",
    "lat": 35.9340424,
    "lng": 126.9755618,
    "tel": "063-859-4683"
  },
  {
    "id":20,
    "title": "순천 풋살클럽",
    "address": "전라남도 순천시 해룡면 상삼리 179-17",
    "lat": 34.9380423,
    "lng": 127.5404279,
    "tel": "061-655-7979"
  },
  {
    "id":21,
    "title": "아중체련공원",
    "address": "전라북도 전주시 덕진구 인후동1가 16 ",
    "lat": 35.8220767,
    "lng": 127.1682079,
    "tel": "063-239-2564"
  },
  {
    "id":22,
    "title": "에이스 풋살장",
    "address": "전라북도 전주시 덕진구 팔복동1가 79",
    "lat": 35.8550725,
    "lng": 127.1134616,
    "tel": "063-277-8955"
  },
  {
    "id":23,
    "title": "유심천풋살클럽",
    "address": "전라남도 여수시 소라면 죽림리 116",
    "lat": 34.74994179999999,
    "lng": 127.641952,
    "tel": "070-7500-7873"
  },
  {
    "id":24,
    "title": "익산시민공원풋살장",
    "address": "전라북도 익산시 영등동 814",
    "lat": 35.9635095,
    "lng": 126.9765926,
    "tel": "063-859-4613"
  },
  {
    "id":25,
    "title": "전주 메리트풋볼 실내풋살장",
    "address": "전라북도 전주시 완산구 서신동 969-3 옥상층",
    "lat": 35.8347963,
    "lng": 127.1205875,
    "tel": "1533-9996"
  },
  {
    "id":26,
    "title": "전주 전북유나이티드 실내풋살장",
    "address": "전라북도 전주시 덕진구 산정동 857-3 2층",
    "lat": 35.8394653,
    "lng": 127.1683515,
    "tel": "063-903-7446"
  },
  {
    "id":27,
    "title": "전주 프로풋볼 실내풋살장",
    "address": "전라북도 전주시 덕진구 솔내로 180",
    "lat": 35.8659393,
    "lng": 127.1275595,
    "tel": "010-8440-5231"
  },
  {
    "id":28,
    "title": "전주투데이 풋살장",
    "address": "전라북도 전주시 덕진구 덕진동1가 1279-15",
    "lat": 35.8446012,
    "lng": 127.1233021,
    "tel": "063-273-8500"
  },
  {
    "id":29,
    "title": "전주패밀리랜드 풋살장",
    "address": "전라북도 전주시 완산구 상림동 580",
    "lat": 35.8076325,
    "lng": 127.071248,
    "tel": "063-236-8273"
  },
  {
    "id":30,
    "title": "전주혁신 티키타카 실내풋살아레나",
    "address": "전라북도 완주군 이서면 출판로46-12 진영빌딩 2층",
    "lat": 35.8390569,
    "lng": 127.0574407,
    "tel": "063-221-1144"
  },
  {
    "id":31,
    "title": "조가케이지풋살장",
    "address": "전라북도 전주시 완산구 효자동1가 454-1",
    "lat": 35.805452,
    "lng": 127.1144068,
    "tel": "010-2251-4387"
  },
  {
    "id":32,
    "title": "중앙체육공원",
    "address": "전라북도 익산시 어양동 52",
    "lat": 35.9492379,
    "lng": 126.9860638,
    "tel": "063-859-4613"
  },
  {
    "id":33,
    "title": "현대자동차 풋살장",
    "address": "전라북도 완주군 봉동읍 용암리 762",
    "lat": 35.9508555,
    "lng": 127.1373994,
    "tel": "063-260-5125"
  },
  {
    "id":34,
    "title": "황금풋살구장",
    "address": "전라남도 광양시 광양읍 목성리 524-10",
    "lat": 34.9675792,
    "lng": 127.5989968,
    "tel": "010-7418-5678"
  },
  {
    "id":35,
    "title": "황등생활체육공원 풋살장",
    "address": "전라북도 익산시 황등면 황등리 656-2",
    "lat": 36.0101936,
    "lng": 126.9458453,
    "tel": "063-856-5931"
  }
]
